{"class":"VERSION","release":"3.16","rev":"3.16-2","proto_major":3,"proto_minor":11}
{"class":"DEVICES","devices":[{"class":"DEVICE","path":"/dev/serial/by-id/usb-Arduino__www.arduino.cc__0043_A41363730373514051E2-if00","driver":"NMEA0183","activated":"2016-09-06T03:47:25.727Z","flags":1,"native":0,"bps":9600,"parity":"N","stopbits":1,"cycle":1.00}]}
{"class":"WATCH","enable":true,"json":false,"nmea":false,"raw":2,"scaled":false,"timing":false,"split24":false,"pps":false}
$GPGGA,034725.156,3217.2218,N,10645.7753,W,1,07,2.4,1182.2,M,-27
$GPGGA,034726.156,3217.2218,N,10645.7753,W,1,08,1.5,1182.2,M,-24
$GPGGA,034727.156,3217.2218,N,10645.7753,W,1,08,1.5,1182.2,M,-20
$GPGGA,034728.156,3217.2218,N,10645.7753,W,1,07,2.4,1182.2,M,-25
$GPGGA,034729.156,3217.2218,N,10645.7753,W,1,08,1.5,1182.3,M,-25
$GPGGA,034730.156,3217.2218,N,10645.7753,W,1,07,1.7,1182.3,M,-21
$GPGGA,034731.156,3217.2218,N,10645.7753,W,1,07,2.4,1182.3,M,-21
$GPGGA,034732.156,3217.2218,N,10645.7753,W,1,07,2.4,1182.3,M,-21
$GPGGA,034733.156,3217.2218,N,10645.7753,W,1,07,2.4,1182.3,M,-2,
$GPGGA,034734.156,3217.2217,N,10645.7753,W,1,08,1.5,1182.4,M,-28
$GPGGA,034735.156,3217.2217,N,10645.7753,W,1,07,2.4,1182.4,M,-23
$GPGGA,034736.156,3217.2217,N,10645.7753,W,1,07,2.4,1182.4,M,-21
$GPGGA,034737.156,3217.2217,N,10645.7753,W,1,07,2.4,1182.4,M,-28
$GPGGA,034738.156,3217.2217,N,10645.7753,W,1,07,2.4,1182.4,M,-2,
$GPGGA,034739.156,3217.2217,N,10645.7753,W,1,07,2.4,1182.5,M,-27
$GPGGA,034740.156,3217.2217,N,10645.7753,W,1,07,2.4,1182.6,M,-27
$GPGGA,034741.156,3217.2217,N,10645.7753,W,1,07,2.4,1182.6,M,-2G
$GPGGA,034742.156,3217.2217,N,10645.7754,W,1,07,2.4,1182.7,M,-2G
$GPGGA,034743.156,3217.2217,N,10645.7754,W,1,07,2.4,1182.7,M,-22
$GPGGA,034744.156,3217.2216,N,10645.7754,W,1,07,2.4,1182.8,M,-2,
$GPGGA,034745.156,3217.2217,N,10645.7754,W,1,07,2.4,1182.8,M,-20
$GPGGA,034746.156,3217.2216,N,10645.7754,W,1,07,2.4,1182.9,M,-28
$GPGGA,034747.156,3217.2216,N,10645.7754,W,1,07,2.4,1182.9,M,-20
$GPGGA,034748.156,3217.2216,N,10645.7754,W,1,08,1.5,1182.9,M,-2,
$GPGGA,034749.156,3217.2215,N,10645.7754,W,1,07,2.4,1183.0,M,-2,
$GPGGA,034750.156,3217.2215,N,10645.7754,W,1,08,1.5,1183.0,M,-22
$GPGGA,034751.156,3217.2215,N,10645.7755,W,1,08,1.5,1183.0,M,-20
$GPGGA,034752.156,3217.2215,N,10645.7755,W,1,07,2.4,1183.0,M,-27
$GPGGA,034753.156,3217.2215,N,10645.7755,W,1,08,1.5,1183.0,M,-20
$GPGGA,034754.156,3217.2214,N,10645.7755,W,1,08,1.5,1183.0,M,-2
$GPGGA,034757.156,3217.2206,N,10645.7758,W,1,08,1.5,1183.2,M,-2.
$GPGGA,034758.156,3217.2201,N,10645.7760,W,1,07,2.4,1183.2,M,-20
$GPGGA,034759.156,3217.2194,N,10645.7763,W,1,07,2.4,1183.2,M,-2,
$GPGGA,034800.156,3217.2191,N,10645.7764,W,1,08,1.5,1183.3,M,-2,
$GPGGA,034801.156,3217.2192,N,10645.7760,W,1,08,1.5,1183.3,M,-20
$GPGGA,034802.156,3217.2186,N,10645.7762,W,1,08,1.5,1183.7,M,-27
$GPGGA,034803.156,3217.2173,N,10645.7767,W,1,08,1.5,1184.6,M,-2,
$GPGGA,034804.156,3217.2164,N,10645.7766,W,1,08,1.5,1185.7,M,-26
$GPGGA,034805.156,3217.2161,N,10645.7763,W,1,08,1.5,1186.5,M,-21
$GPGGA,034806.156,3217.2152,N,10645.7762,W,1,08,1.5,1187.3,M,-20
$GPGGA,034807.156,3217.2150,N,10645.7761,W,1,08,1.5,1187.9,M,-2,
$GPGGA,034809.156,3217.2149,N,10645.7759,W,1,08,1.5,1188.9,M,-2P
$GPGGA,034810.156,3217.2146,N,10645.7761,W,1,08,1.5,1189.1,M,-28
$GPGGA,034811.156,3217.2147,N,10645.7761,W,1,08,1.5,1189.5,M,-2,
$GPGGA,034812.156,3217.2152,N,10645.7757,W,1,08,1.5,1190.5,M,-2,
$GPGGA,034813.156,3217.2155,N,10645.7760,W,1,08,1.5,1190.8,M,-2.
$GPGGA,034814.156,3217.2160,N,10645.7758,W,1,08,1.5,1191.0,M,-2015.156,3217.2171,N,10645.7759,W,1,
$GPGGA,034817.156,3217.2171,N,10645.73,22,14,32,10,08,18,11,01,,
$GPGGA,034818.156,3217.2168,N,10645.7761,W,1,08,1.5,1190.2,M,-28
$GPGGA,034819.156,3217.2169,N,10645.7760,W,1,08,1.5,1190.1,M,-21
$GPGGA,034820.156,3217.2168,N,10645.7760,W,1,08,1.5,1190.0,M,-2,
$GPGGA,034821.156,3217.2173,N,10645.7759,W,1,08,1.5,1189.7,M,-2.
$GPGGA,034822.156,3217.2178,N,10645.7757,W,1,07,1.8,1189.5,M,-2P
$GPGGA,034823.156,3217.2183,N,10645.7755,W,1,07,1.8,1189.3,M,-21
$GPGGA,034824.156,3217.2185,N,10645.7755,W,1,07,1.8,1189.2,M,-23
$GPGGA,034825.156,3217.2187,N,10645.7753,W,1,08,1.5,1189.0,M,-2P
$GPGGA,034826.156,3217.2188,N,10645.7754,W,1,08,1.5,1188.9,M,-21
$GPGGA,034827.156,3217.2189,N,10645.7752,W,1,08,1.5,1188.9,M,-24
$GPGGA,034828.156,3217.2188,N,10645.7752,W,1,08,1.5,1188.8,M,-22
$GPGGA,034829.156,3217.2192,N,10645.7751,W,1,07,1.8,1188.8,M,-23
$GPGGA,034830.156,3217.2197,N,10645.7750,W,1,08,1.5,1188.6,M,-26
$GPGGA,034831.156,3217.2197,N,10645.7750,W,1,08,1.5,1188.6,M,-23
$GPGGA,034832.156,3217.2197,N,10645.7750,W,1,09,1.1,1188.2,M,-25
$GPGGA,034833.156,3217.2197,N,10645.7750,W,1,08,1.2,1188.2,M,-2,
$GPGGA,034834.156,3217.2197,N,10645.7750,W,1,09,1.1,1188.2,M,-27
$GPGGA,034835.156,3217.2197,N,10645.7750,W,1,09,1.1,1188.2,M,-21
$GPGGA,034836.156,3217.2197,N,10645.7750,W,1,09,1.1,1188.2,M,-2,
$GPGGA,034837.156,3217.2197,N,10645.7750,W,1,09,1.1,1188.2,M,-29
$GPGGA,034838.156,3217.2197,N,10645.7750,W,1,09,1.1,1188.2,M,-2F
$GPGGA,034839.156,3217.2197,N,10645.7750,W,1,08,1.1,1188.2,M,-2,
$GPGGA,034840.156,3217.2197,N,10645.7750,W,1,08,1.1,1188.2,M,-29
$GPGGA,034841.156,3217.2197,N,10645.7750,W,1,08,1.1,1188.2,M,-2,
$GPGGA,034842.156,3217.2197,N,10645.7750,W,1,08,1.1,1188.2,M,-21
$GPGGA,034843.156,3217.2197,N,10645.7750,W,1,07,1.4,1188.2,M,-28
$GPGGA,034844.156,3217.2197,N,10645.7750,W,1,07,1.4,1188.2,M,-22
$GPGGA,034845.156,3217.2197,N,10645.7750,W,1,08,1.2,1188.2,M,-21
$GPGGA,034847.156,3217.2197,N,10645.7750,W,1,09,1.1,1188.2,M,-23
$GPGGA,034848.156,3217.2197,N,10645.7750,W,1,08,1.1,1188.2,M,-26
$GPGGA,034849.156,3217.2197,N,10645.7750,W,1,08,1.1,1188.2,M,-2,
$GPGGA,034851.156,3217.2197,N,10645.7750,W,1,09,1.1,1188.2,M,-2
$GPGGA,034852.156,3217.2197,N,10645.7750,W,1,08,1.1,1188.2,M,-2,
$GPGGA,034853.156,3217.2197,N,10645.7750,W,1,07,1.2,1188.2,M,-27
$GPGGA,034854.156,3217.2182,N,10645.7756,W,1,08,1.1,1185.1,M,-25
$GPGGA,034855.156,3217.2184,N,10645.7756,W,1,09,1.1,1184.8,M,-22
$GPGGA,034856.156,3217.2184,N,10645.7756,W,1,08,1.1,1184.8,M,-2,
$GPGGA,034857.156,3217.2184,N,10645.7756,W,1,08,1.1,1184.8,M,-22
$GPGGA,034858.156,3217.2184,N,10645.7756,W,1,09,1.1,1184.8,M,-2,
$GPGGA,034859.156,3217.2184,N,10645.7756,W,1,09,1.1,1184.8,M,-26
$GPGGA,034900.156,3217.2184,N,10645.7756,W,1,08,1.1,1184.8,M,-27
$GPGGA,034901.156,3217.2184,N,10645.7756,W,1,08,1.1,1184.8,M,-2G
$GPGGA,034902.156,3217.2184,N,10645.7756,W,1,09,1.1,1184.8,M,-20
$GPGGA,034903.156,3217.2184,N,10645.7756,W,1,08,1.1,1184.8,M,-2A
$GPGGA,034904.156,3217.2184,N,10645.7756,W,1,08,1.1,1184.8,M,-2.
$GPGGA,034905.156,3217.2184,N,10645.7756,W,1,09,1.1,1184.8,M,-2,
$GPGGA,034906.156,3217.2184,N,10645.7756,W,1,09,1.1,1184.8,M,-21
$GPGGA,034907.156,3217.2184,N,10645.7756,W,1,09,1.1,1184.8,M,-24
$GPGGA,034908.156,3217.2184,N,10645.7756,W,1,09,1.1,1184.8,M,-2,
$GPGGA,034909.156,3217.2184,N,10645.7756,W,1,09,1.1,1184.8,M,-2,
$GPGGA,034910.156,3217.2184,N,10645.7756,W,1,09,1.1,1184.8,M,-20
$GPGGA,034911.156,3217.2184,N,10645.7756,W,1,09,1.1,1184.8,M,-2,
$GPGGA,034912.156,3217.2184,N,10645.7756,W,1,09,1.1,1184.8,M,-2,
$GPGGA,034913.156,3217.2184,N,10645.7756,W,1,09,1.1,1184.8,M,-2.
$GPGGA,034914.156,3217.2184,N,10645.7756,W,1,09,1.1,1184.8,M,-2.
$GPGGA,034915.156,3217.2184,N,10645.7756,W,1,09,1.1,1184.8,M,-2G
$GPGGA,034917.156,3217.2184,N,10645.7756,W,1,09,1.1,1184.8,M,-2,
$GPGGA,034918.156,3217.2184,N,10645.7756,W,1,09,1.1,1184.8,M,-2,GGA,034919.156,3217.2184,N,10645.7
$GPGGA,034921.156,3217.2184,N,10645.7756,W,1,08,1.3,1184.8,M,-2,
$GPGGA,034922.156,3217.2184,N,10645.7756,W,1,08,1.3,1184.8,M,-2G
$GPGGA,034923.156,3217.2184,N,10645.7756,W,1,09,1.1,1184.8,M,-2A
$GPGGA,034924.156,3217.2184,N,10645.7756,W,1,08,1.3,1184.8,M,-20
$GPGGA,034925.156,3217.2184,N,10645.7756,W,1,08,1.3,1184.8,M,-20
$GPGGA,034926.156,3217.2184,N,10645.7756,W,1,08,1.3,1184.8,M,-21
$GPGGA,034927.156,3217.2184,N,10645.7756,W,1,08,1.3,1184.8,M,-2,
$GPGGA,034928.156,3217.2184,N,10645.7756,W,1,08,1.3,1184.8,M,-21
$GPGGA,034930.156,3217.2184,N,10645.7756,W,1,08,1.3,1184.8,M,-2,
$GPGGA,034931.156,3217.2184,N,10645.7756,W,1,08,1.3,1184.8,M,-23
$GPGGA,034932.156,3217.2184,N,10645.7756,W,1,08,1.3,1184.8,M,-2,
$GPGGA,034933.156,3217.2184,N,10645.7756,W,1,08,1.3,1184.8,M,-27
$GPGGA,034934.156,3217.2184,N,10645.7756,W,1,08,1.3,1184.8,M,-22
$GPGGA,034935.156,3217.2184,N,10645.7756,W,1,08,1.3,1184.8,M,-26
$GPGGA,034936.156,3217.2184,N,10645.7756,W,1,08,1.3,1184.8,M,-23
$GPGGA,034937.156,3217.2184,N,10645.7756,W,1,08,1.3,1184.8,M,-25
$GPGGA,034938.156,3217.2184,N,10645.7756,W,1,08,1.3,1184.8,M,-21
$GPGGA,034939.156,3217.2184,N,10645.7756,W,1,09,1.1,1184.8,M,-24
$GPGGA,034940.156,3217.2184,N,10645.7756,W,1,08,1.3,1184.8,M,-25
$GPGGA,034941.156,3217.2184,N,10645.7756,W,1,09,1.1,1184.8,M,-22
$GPGGA,034942.156,3217.2184,N,10645.7756,W,1,08,1.3,1184.8,M,-20
$GPGGA,034943.156,3217.2184,N,10645.7756,W,1,08,1.3,1184.8,M,-2G
$GPGGA,034944.156,3217.2184,N,10645.7756,W,1,08,1.3,1184.8,M,-2P
$GPGGA,034945.156,3217.2184,N,10645.7756,W,1,08,1.3,1184.8,M,-22
$GPGGA,034946.156,3217.2184,N,10645.7756,W,1,08,1.3,1184.8,M,-2,
$GPGGA,034947.156,3217.2184,N,10645.7756,W,1,08,1.3,1184.8,M,-22
$GPGGA,034948.156,3217.2184,N,10645.7756,W,1,08,1.3,1184.8,M,-2,
$GPGGA,034949.156,3217.2184,N,10645.7756,W,1,08,1.3,1184.8,M,-21
$GPGGA,034950.156,3217.2184,N,10645.7756,W,1,08,1.2,1184.8,M,-28
$GPGGA,034951.156,3217.2184,N,10645.7756,W,1,07,1.3,1184.8,M,-28
$GPGGA,034952.156,3217.2184,N,10645.7756,W,1,08,1.2,1184.8,M,-21
$GPGGA,034953.156,3217.2184,N,10645.7756,W,1,08,1.2,1184.8,M,-22
$GPGGA,034954.156,3217.2184,N,10645.7756,W,1,07,1.3,1184.8,M,-2
$GPGGA,034955.156,3217.2184,N,10645.7756,W,1,08,1.3,1184.8,M,-25
$GPGGA,034956.156,3217.2184,N,10645.7756,W,1,08,1.3,1184.8,M,-2G
$GPGGA,034957.156,3217.2184,N,10645.7756,W,1,08,1.3,1184.8,M,-2,
$GPGGA,034958.156,3217.2184,N,10645.7756,W,1,08,1.3,1184.8,M,-2P
$GPGGA,034959.156,3217.2184,N,10645.7756,W,1,08,1.3,1184.8,M,-23
$GPGGA,035000.156,3217.2184,N,10645.7756,W,1,08,1.3,1184.8,M,-23
$GPGGA,035001.156,3217.2184,N,10645.7756,W,1,08,1.3,1184.8,M,-22
$GPGGA,035002.156,3217.2184,N,10645.7756,W,1,08,1.3,1184.8,M,-2,
$GPGGA,035004.156,3217.2184,N,10645.7756,W,1,08,1.3,1184.8,M,-21
$GPGGA,035005.156,3217.2184,N,10645.7756,W,1,08,1.3,1184.8,M,-2,
$GPGGA,035006.156,3217.2184,N,10645.7756,W,1,08,1.3,1184.8,M,-20
$GPGGA,035007.156,3217.2184,N,10645.7756,W,1,08,1.3,1184.8,M,-29
$GPGGA,035008.156,3217.2184,N,10645.7756,W,1,08,1.3,1184.8,M,-21
$GPGGA,035009.156,3217.2184,N,10645.7756,W,1,08,1.3,1184.8,M,-25
$GPGGA,035010.156,3217.2184,N,10645.7756,W,1,08,1.3,1184.8,M,-27
$GPGGA,035012.156,3217.2184,N,10645.7756,W,1,09,1.1,1184.8,M,-2G
$GPGGA,035013.156,3217.2184,N,10645.7756,W,1,09,1.1,1184.8,M,-2C
$GPGGA,035014.156,3217.2184,N,10645.7756,W,1,08,1.2,1184.8,M,-2,
$GPGGA,035015.156,3217.2184,N,10645.7756,W,1,08,1.2,1184.8,M,-2N
$GPGGA,035016.156,3217.2184,N,10645.7756,W,1,09,1.1,1184.8,M,-24
$GPGGA,035017.156,3217.2184,N,10645.7756,W,1,08,1.3,1184.8,M,-25
$GPGGA,035019.156,3217.2183,N,10645.7751,W,1,09,1.1,1181.7,M,-21
$GPGGA,035021.156,3217.2181,N,10645.7751,W,1,09,1.1,1181.6,M,-20
$GPGGA,035024.156,3217.2180,N,10645.7751,W,1,09,1.1,1181.5,M,-29
$GPGGA,035025.156,3217.2180,N,10645.7751,W,1,09,1.1,1181.5,M,-2,
$GPGGA,035026.156,3217.2180,N,10645.7752,W,1,08,1.3,1181.4,M,-21
$GPGGA,035027.156,3217.2179,N,10645.7753,W,1,09,1.1,1181.4,M,-2,
$GPGGA,035028.156,3217.2179,N,10645.7753,W,1,09,1.1,1181.4,M,-2,
$GPGGA,035029.156,3217.2179,N,10645.7754,W,1,09,1.1,1181.5,M,-205030.156,3217.2179,N,10645.7754,W
$GPGGA,035033.156,3217.2179,N,10645.7754,W,1,09,1,14,32,31,10,08
$GPGGA,035034.156,3217.2179,N,10645.7754,W,1,09,1.1,1181.5,M,-21
$GPGGA,035035.156,3217.2179,N,10645.7754,W,1,09,1.1,1181.5,M,-21
$GPGGA,035036.156,3217.2179,N,10645.7754,W,1,09,1.1,1181.5,M,-20
$GPGGA,035037.156,3217.2179,N,10645.7754,W,1,09,1.1,1181.5,M,-20
$GPGGA,035038.156,3217.2179,N,10645.7754,W,1,09,1.1,1181.5,M,-21
$GPGGA,035039.156,3217.2179,N,10645.7754,W,1,09,1.1,1181.5,M,-2.
$GPGGA,035040.156,3217.2179,N,10645.7754,W,1,09,1.1,1181.5,M,-23
$GPGGA,035041.156,3217.2179,N,10645.7754,W,1,09,1.1,1181.5,M,-2P
$GPGGA,035042.156,3217.2179,N,10645.7754,W,1,09,1.1,1181.5,M,-2,
$GPGGA,035043.156,3217.2179,N,10645.7754,W,1,09,1.1,1181.5,M,-23
$GPGGA,035044.156,3217.2179,N,10645.7754,W,1,09,1.1,1181.5,M,-21
$GPGGA,035045.156,3217.2179,N,10645.7754,W,1,09,1.1,1181.5,M,-23
$GPGGA,035046.156,3217.2179,N,10645.7754,W,1,09,1.1,1181.5,M,-21
$GPGGA,035047.156,3217.2179,N,10645.7754,W,1,09,1.1,1181.5,M,-28
$GPGGA,035048.156,3217.2179,N,10645.7754,W,1,09,1.1,1181.5,M,-28
$GPGGA,035049.156,3217.2179,N,10645.7754,W,1,09,1.1,1181.5,M,-23
$GPGGA,035050.156,3217.2179,N,10645.7754,W,1,09,1.1,1181.5,M,-20
$GPGGA,035051.156,3217.2179,N,10645.7754,W,1,09,1.1,1181.5,M,-21
$GPGGA,035052.156,3217.2179,N,10645.7754,W,1,09,1.1,1181.5,M,-2,
$GPGGA,035053.156,3217.2179,N,10645.7754,W,1,09,1.1,1181.5,M,-2A
$GPGGA,035054.156,3217.2179,N,10645.7754,W,1,09,1.1,1181.5,M,-2G
$GPGGA,035055.156,3217.2179,N,10645.7754,W,1,09,1.1,1181.5,M,-22
$GPGGA,035056.156,3217.2179,N,10645.7754,W,1,09,1.1,1181.5,M,-22
$GPGGA,035057.156,3217.2179,N,10645.7754,W,1,09,1.1,1181.5,M,-22
$GPGGA,035058.156,3217.2179,N,10645.7754,W,1,09,1.1,1181.5,M,-21
$GPGGA,035059.156,3217.2179,N,10645.7754,W,1,09,1.1,1181.5,M,-2,
$GPGGA,035100.156,3217.2179,N,10645.7754,W,1,09,1.1,1181.5,M,-22
$GPGGA,035101.156,3217.2179,N,10645.7754,W,1,09,1.1,1181.5,M,-22
$GPGGA,035102.156,3217.2179,N,10645.7754,W,1,09,1.1,1181.5,M,-21
$GPGGA,035103.156,3217.2179,N,10645.7754,W,1,09,1.1,1181.5,M,-22
$GPGGA,035104.156,3217.2179,N,10645.7754,W,1,08,1.3,1181.5,M,-27
$GPGGA,035105.156,3217.2179,N,10645.7754,W,1,08,1.3,1181.5,M,-2
$GPGGA,035106.156,3217.2179,N,10645.7754,W,1,08,1.3,1181.5,M,-21
$GPGGA,035107.156,3217.2179,N,10645.7754,W,1,09,1.1,1181.5,M,-23
$GPGGA,035108.156,3217.2179,N,10645.7754,W,1,09,1.1,1181.5,M,-2P
$GPGGA,035109.156,3217.2179,N,10645.7754,W,1,09,1.1,1181.5,M,-25
$GPGGA,035110.156,3217.2179,N,10645.7754,W,1,09,1.1,1181.5,M,-20
$GPGGA,035111.156,3217.2179,N,10645.7754,W,1,09,1.1,1181.5,M,-27
$GPGGA,035112.156,3217.2179,N,10645.7754,W,1,08,1.3,1181.5,M,-26
$GPGGA,035113.156,3217.2179,N,10645.7754,W,1,08,1.3,1181.5,M,-28
$GPGGA,035115.156,3217.2179,N,10645.7754,W,1,08,1.3,1181.5,M,-2,
$GPGGA,035116.156,3217.2179,N,10645.7754,W,1,08,1.3,1181.5,M,-28
$GPGGA,035117.156,3217.2179,N,10645.7754,W,1,08,1.3,1181.5,M,-2
$GPGGA,035119.156,3217.2179,N,10645.7754,W,1,08,1.3,1181.5,M,-21
$GPGGA,035120.156,3217.2179,N,10645.7754,W,1,08,1.3,1181.5,M,-25
$GPGGA,035121.156,3217.2179,N,10645.7754,W,1,08,1.3,1181.5,M,-2,
$GPGGA,035122.156,3217.2179,N,10645.7754,W,1,08,1.3,1181.5,M,-2.
$GPGGA,035123.156,3217.2179,N,10645.7754,W,1,08,1.3,1181.5,M,-2,
$GPGGA,035124.156,3217.2179,N,10645.7754,W,1,07,1.4,1181.5,M,-2W
$GPGGA,035125.156,3217.2179,N,10645.7754,W,1,07,1.4,1181.5,M,-24
$GPGGA,035126.156,3217.2179,N,10645.7754,W,1,09,1.1,1181.5,M,-2,
$GPGGA,035127.156,3217.2179,N,10645.7754,W,1,07,1.4,1181.5,M,-2,
$GPGGA,035128.156,3217.2179,N,10645.7754,W,1,07,1.4,1181.5,M,-2,
$GPGGA,035130.156,3217.2179,N,10645.7754,W,1,08,1.1,1181.5,M,-2A
$GPGGA,035131.156,3217.2179,N,10645.7754,W,1,08,1.3,1181.5,M,-27
$GPGGA,035132.156,3217.2179,N,10645.7754,W,1,08,1.3,1181.5,M,-2
$GPGGA,035133.156,3217.2179,N,10645.7754,W,1,09,1.1,1181.5,M,-2G
$GPGGA,035134.156,3217.2179,N,10645.7754,W,1,08,1.3,1181.5,M,-20GA,035135.156,3217.2179,N,10645.7
$GPGGA,035137.156,3217.2179,N,10645.7754,W,1,09,1.1,1181.5,M,-23
$GPGGA,035138.156,3217.2179,N,10645.7754,W,1,09,1.1,1181.5,M,-2,
$GPGGA,035139.156,3217.2179,N,10645.7754,W,1,09,1.1,1181.5,M,-20
$GPGGA,035140.156,3217.2179,N,10645.7754,W,1,08,1.3,1181.5,M,-2,
$GPGGA,035141.156,3217.2179,N,10645.7754,W,1,08,1.3,1181.5,M,-2,
$GPGGA,035142.156,3217.2179,N,10645.7754,W,1,09,1.1,1181.5,M,-21
$GPGGA,035143.156,3217.2179,N,10645.7754,W,1,09,1.1,1181.5,M,-23
$GPGGA,035144.156,3217.2179,N,10645.7754,W,1,08,1.3,1181.5,M,-2,
$GPGGA,035145.156,3217.2179,N,10645.7754,W,1,08,1.3,1181.5,M,-2,
$GPGGA,035146.156,3217.2179,N,10645.7754,W,1,08,1.3,1181.5,M,-2.
$GPGGA,035147.156,3217.2179,N,10645.7754,W,1,08,1.3,1181.5,M,-26
$GPGGA,035148.156,3217.2179,N,10645.7754,W,1,08,1.3,1181.5,M,-2
$GPGGA,035149.156,3217.2179,N,10645.7754,W,1,09,1.1,1181.5,M,-2P
$GPGGA,035150.156,3217.2179,N,10645.7754,W,1,09,1.1,1181.5,M,-2.
$GPGGA,035151.156,3217.2179,N,10645.7754,W,1,09,1.1,1181.5,M,-2V
$GPGGA,035152.156,3217.2179,N,10645.7754,W,1,09,1.1,1181.5,M,-21
$GPGGA,035153.156,3217.2179,N,10645.7754,W,1,09,1.1,1181.5,M,-21
$GPGGA,035154.156,3217.2179,N,10645.7754,W,1,09,1.1,1181.5,M,-27
$GPGGA,035155.156,3217.2179,N,10645.7754,W,1,09,1.1,1181.5,M,-23
$GPGGA,035156.156,3217.2179,N,10645.7754,W,1,09,1.1,1181.5,M,-2,
$GPGGA,035157.156,3217.2179,N,10645.7754,W,1,09,1.1,1181.5,M,-22
$GPGGA,035158.156,3217.2179,N,10645.7754,W,1,09,1.1,1181.5,M,-2,
$GPGGA,035159.156,3217.2179,N,10645.7754,W,1,09,1.1,1181.5,M,-28
$GPGGA,035200.156,3217.2179,N,10645.7754,W,1,09,1.1,1181.5,M,-22
$GPGGA,035201.156,3217.2179,N,10645.7754,W,1,09,1.1,1181.5,M,-21
$GPGGA,035202.156,3217.2179,N,10645.7754,W,1,09,1.1,1181.5,M,-20
$GPGGA,035204.156,3217.2179,N,10645.7754,W,1,09,1.1,1181.5,M,-2,
$GPGGA,035205.156,3217.2179,N,10645.7754,W,1,09,1.1,1181.5,M,-21
$GPGGA,035206.156,3217.2179,N,10645.7754,W,1,09,1.1,1181.5,M,-21
$GPGGA,035207.156,3217.2179,N,10645.7754,W,1,09,1.1,1181.5,M,-2,
$GPGGA,035208.156,3217.2179,N,10645.7754,W,1,09,1.1,1181.5,M,-28
$GPGGA,035209.156,3217.2179,N,10645.7754,W,1,09,1.1,1181.5,M,-22
$GPGGA,035210.156,3217.2179,N,10645.7754,W,1,09,1.1,1181.5,M,-22
$GPGGA,035212.156,3217.2179,N,10645.7754,W,1,09,1.1,1181.5,M,-28
$GPGGA,035213.156,3217.2179,N,10645.7754,W,1,09,1.1,1181.5,M,-28
$GPGGA,035214.156,3217.2179,N,10645.7754,W,1,09,1.1,1181.5,M,-28
$GPGGA,035215.156,3217.2179,N,10645.7754,W,1,09,1.1,1181.5,M,-2
$GPGGA,035216.156,3217.2179,N,10645.7754,W,1,09,1.1,1181.5,M,-2G
$GPGGA,035217.156,3217.2179,N,10645.7754,W,1,09,1.1,1181.5,M,-23
$GPGGA,035218.156,3217.2179,N,10645.7754,W,1,09,1.1,1181.5,M,-22
$GPGGA,035219.156,3217.2179,N,10645.7754,W,1,09,1.1,1181.5,M,-2,
$GPGGA,035220.156,3217.2179,N,10645.7754,W,1,09,1.1,1181.5,M,-20
$GPGGA,035221.156,3217.2179,N,10645.7754,W,1,09,1.1,1181.5,M,-25
$GPGGA,035222.156,3217.2179,N,10645.7754,W,1,09,1.1,1181.5,M,-2,
$GPGGA,035223.156,3217.2179,N,10645.7754,W,1,09,1.1,1181.5,M,-2,
$GPGGA,035224.156,3217.2179,N,10645.7754,W,1,09,1.1,1181.5,M,-25
$GPGGA,035225.156,3217.2179,N,10645.7754,W,1,09,1.1,1181.5,M,-25
$GPGGA,035226.156,3217.2179,N,10645.7754,W,1,09,1.1,1181.5,M,-21
$GPGGA,035227.156,3217.2179,N,10645.7754,W,1,09,1.1,1181.5,M,-2,
$GPGGA,035228.156,3217.2179,N,10645.7754,W,1,09,1.1,1181.5,M,-21
$GPGGA,035229.156,3217.2179,N,10645.7754,W,1,09,1.1,1181.5,M,-2A
$GPGGA,035230.156,3217.2179,N,10645.7754,W,1,09,1.1,1181.5,M,-22
$GPGGA,035231.156,3217.2179,N,10645.7754,W,1,09,1.1,1181.5,M,-2N
$GPGGA,035232.156,3217.2179,N,10645.7754,W,1,09,1.1,1181.5,M,-2,
$GPGGA,035233.156,3217.2179,N,10645.7754,W,1,09,1.1,1181.5,M,-27
$GPGGA,035234.156,3217.2179,N,10645.7754,W,1,09,1.1,1181.5,M,-25
$GPGGA,035235.156,3217.2179,N,10645.7754,W,1,09,1.1,1181.5,M,-21
$GPGGA,035236.156,3217.2179,N,10645.7754,W,1,09,1.1,1181.5,M,-2
$GPGGA,035237.156,3217.2179,N,10645.7754,W,1,09,1.1,1181.5,M,-20
$GPGGA,035239.156,3217.2179,N,10645.7754,W,1,08,1.1,1181.5,M,-25
$GPGGA,035240.156,3217.2179,N,10645.7754,W,1,09,1.1,1181.5,M,-2T
$GPGGA,035241.156,3217.2179,N,10645.7754,W,1,09,1.1,1181.5,M,-21
$GPGGA,035243.156,3217.2179,N,10645.7754,W,1,09,1.1,1181.5,M,-23
$GPGGA,035244.156,3217.2179,N,10645.7754,W,1,09,1.1,1181.5,M,-23
$GPGGA,035245.156,3217.2179,N,10645.7754,W,1,09,1.1,1181.5,M,-23
$GPGGA,035246.156,3217.2179,N,10645.7754,W,1,08,1.1,1181.5,M,-23
$GPGGA,035247.156,3217.2179,N,10645.7754,W,1,08,1.1,1181.5,M,-23
$GPGGA,035248.156,3217.2179,N,10645.7754,W,1,08,1.1,1181.5,M,-23
$GPGGA,035249.156,3217.2179,N,10645.7754,W,1,09,1.1,1181.5,M,-23
$GPGGA,035250.156,3217.2179,N,10645.7754,W,1,09,1.1,1181.5,M,-23
$GPGGA,035251.156,3217.2179,N,10645.7754,W,1,09,1.1,1181.5,M,-23
$GPGGA,035252.156,3217.2179,N,10645.7754,W,1,09,1.1,1181.5,M,-2.
$GPGGA,035253.156,3217.2179,N,10645.7754,W,1,09,1.1,1181.5,M,-20
$GPGGA,035254.156,3217.2179,N,10645.7754,W,1,08,1.1,1181.5,M,-2G
$GPGGA,035255.156,3217.2179,N,10645.7754,W,1,08,1.1,1181.5,M,-2,
$GPGGA,035256.156,3217.2179,N,10645.7754,W,1,09,1.1,1181.5,M,-2S
$GPGGA,035257.156,3217.2179,N,10645.7754,W,1,08,1.1,1181.5,M,-20
$GPGGA,035258.156,3217.2179,N,10645.7754,W,1,08,1.1,1181.5,M,-2,
$GPGGA,035259.156,3217.2179,N,10645.7754,W,1,09,1.1,1181.5,M,-20
$GPGGA,035300.156,3217.2179,N,10645.7754,W,1,09,1.1,1181.5,M,-21
$GPGGA,035301.156,3217.2179,N,10645.7754,W,1,09,1.1,1181.5,M,-21
$GPGGA,035302.156,3217.2179,N,10645.7754,W,1,09,1.1,1181.5,M,-2,
$GPGGA,035303.156,3217.2179,N,10645.7754,W,1,08,1.2,1181.5,M,-21
$GPGGA,035304.156,3217.2179,N,10645.7754,W,1,08,1.2,1181.5,M,-2,
$GPGGA,035305.156,3217.2179,N,10645.7754,W,1,09,1.1,1181.5,M,-21
$GPGGA,035306.156,3217.2179,N,10645.7754,W,1,08,1.1,1181.5,M,-21
$GPGGA,035308.156,3217.2179,N,10645.7754,W,1,09,1.1,1181.5,M,-21
$GPGGA,035309.156,3217.2179,N,10645.7754,W,1,08,1.1,1181.5,M,-26
$GPGGA,035310.156,3217.2179,N,10645.7754,W,1,08,1.1,1181.5,M,-28
$GPGGA,035311.156,3217.2179,N,10645.7754,W,1,08,1.1,1181.5,M,-2,
$GPGGA,035312.156,3217.2179,N,10645.7754,W,1,08,1.1,1181.5,M,-2,
